{"after_features": [{"type": "Feature", "id": 0, "properties": {"SITE_NAME": "Benjamin Banneker Charter Public School", "ADDRESS": "", "PHONE": "", "SHELTER": "YES", "SHEL_FOOD": "YES", "SHEL_CAP": 0, "EditDate": ""}, "geometry": {"type": "Point", "coordinates": [-71.13156, 42.392112]}}, {"type": "Feature", "id": 1, "properties": {"SITE_NAME": "Amigos School", "ADDRESS": "", "PHONE": "", "SHELTER": "YES", "SHEL_FOOD": "YES", "SHEL_CAP": 0, "EditDate": ""}, "geometry": {"type": "Point", "coordinates": [-71.1082255, 42.3629904]}}, {"type": "Feature", "id": 2, "properties": {"SITE_NAME": "Cambridge Street Upper School", "ADDRESS": "", "PHONE": "", "SHELTER": "YES", "SHEL_FOOD": "YES", "SHEL_CAP": 0, "EditDate": ""}, "geometry": {"type": "Point", "coordinates": [-71.0865278, 42.3695056]}}, {"type": "Feature", "id": 3, "properties": {"SITE_NAME": "Cambridgeport", "ADDRESS": "", "PHONE": "", "SHELTER": "YES", "SHEL_FOOD": "YES", "SHEL_CAP": 0, "EditDate": ""}, "geometry": {"type": "Point", "coordinates": [-71.0978276, 42.3693603]}}, {"type": "Feature", "id": 4, "properties": {"SITE_NAME": "Fletcher/Maynard Academy", "ADDRESS": "", "PHONE": "", "SHELTER": "YES", "SHEL_FOOD": "YES", "SHEL_CAP": 0, "EditDate": ""}, "geometry": {"type": "Point", "coordinates": [-71.0959243, 42.3668461]}}, {"type": "Feature", "id": 5, "properties": {"SITE_NAME": "Graham and Parks", "ADDRESS": "", "PHONE": "", "SHELTER": "YES", "SHEL_FOOD": "YES", "SHEL_CAP": 0, "EditDate": ""}, "geometry": {"type": "Point", "coordinates": [-71.1236381, 42.3828869]}}, {"type": "Feature", "id": 6, "properties": {"SITE_NAME": "Haggerty", "ADDRESS": "", "PHONE": "", "SHELTER": "YES", "SHEL_FOOD": "YES", "SHEL_CAP": 0, "EditDate": ""}, "geometry": {"type": "Point", "coordinates": [-71.1524555, 42.3781208]}}, {"type": "Feature", "id": 7, "properties": {"SITE_NAME": "John M Tobin", "ADDRESS": "", "PHONE": "", "SHELTER": "YES", "SHEL_FOOD": "YES", "SHEL_CAP": 0, "EditDate": ""}, "geometry": {"type": "Point", "coordinates": [-71.1397456, 42.3844033]}}, {"type": "Feature", "id": 8, "properties": {"SITE_NAME": "Kennedy-Longfellow", "ADDRESS": "", "PHONE": "", "SHELTER": "YES", "SHEL_FOOD": "YES", "SHEL_CAP": 0, "EditDate": ""}, "geometry": {"type": "Point", "coordinates": [-71.0865278, 42.3695056]}}, {"type": "Feature", "id": 9, "properties": {"SITE_NAME": "King Open", "ADDRESS": "", "PHONE": "", "SHELTER": "YES", "SHEL_FOOD": "YES", "SHEL_CAP": 0, "EditDate": ""}, "geometry": {"type": "Point", "coordinates": [-71.1038626, 42.3709829]}}, {"type": "Feature", "id": 10, "properties": {"SITE_NAME": "Maria L. Baldwin", "ADDRESS": "", "PHONE": "", "SHELTER": "YES", "SHEL_FOOD": "YES", "SHEL_CAP": 0, "EditDate": ""}, "geometry": {"type": "Point", "coordinates": [-71.1168143, 42.3823558]}}, {"type": "Feature", "id": 11, "properties": {"SITE_NAME": "Martin Luther King Jr.", "ADDRESS": "", "PHONE": "", "SHELTER": "YES", "SHEL_FOOD": "YES", "SHEL_CAP": 0, "EditDate": ""}, "geometry": {"type": "Point", "coordinates": [-71.1128252, 42.3670495]}}, {"type": "Feature", "id": 12, "properties": {"SITE_NAME": "Morse", "ADDRESS": "", "PHONE": "", "SHELTER": "YES", "SHEL_FOOD": "YES", "SHEL_CAP": 0, "EditDate": ""}, "geometry": {"type": "Point", "coordinates": [-71.1127756, 42.3558719]}}, {"type": "Feature", "id": 13, "properties": {"SITE_NAME": "Peabody", "ADDRESS": "", "PHONE": "", "SHELTER": "YES", "SHEL_FOOD": "YES", "SHEL_CAP": 0, "EditDate": ""}, "geometry": {"type": "Point", "coordinates": [-71.1282134, 42.3922447]}}, {"type": "Feature", "id": 14, "properties": {"SITE_NAME": "Putnam Avenue Upper School", "ADDRESS": "", "PHONE": "", "SHELTER": "YES", "SHEL_FOOD": "YES", "SHEL_CAP": 0, "EditDate": ""}, "geometry": {"type": "Point", "coordinates": [-71.1133073, 42.3670478]}}, {"type": "Feature", "id": 15, "properties": {"SITE_NAME": "Rindge Avenue Upper School", "ADDRESS": "", "PHONE": "", "SHELTER": "YES", "SHEL_FOOD": "YES", "SHEL_CAP": 0, "EditDate": ""}, "geometry": {"type": "Point", "coordinates": [-71.1282134, 42.3922447]}}, {"type": "Feature", "id": 16, "properties": {"SITE_NAME": "Vassal Lane Upper School", "ADDRESS": "", "PHONE": "", "SHELTER": "YES", "SHEL_FOOD": "YES", "SHEL_CAP": 0, "EditDate": ""}, "geometry": {"type": "Point", "coordinates": [-71.1397456, 42.3844033]}}, {"type": "Feature", "id": 17, "properties": {"SITE_NAME": "Community Charter School of Cambridge", "ADDRESS": "", "PHONE": "", "SHELTER": "YES", "SHEL_FOOD": "YES", "SHEL_CAP": 0, "EditDate": ""}, "geometry": {"type": "Point", "coordinates": [-71.0852003, 42.3677264]}}, {"type": "Feature", "id": 18, "properties": {"SITE_NAME": "Prospect Hill Academy Charter School", "ADDRESS": "", "PHONE": "", "SHELTER": "YES", "SHEL_FOOD": "YES", "SHEL_CAP": 0, "EditDate": ""}, "geometry": {"type": "Point", "coordinates": [-71.1008916, 42.3675073]}}]}
